county,name,address,lat,lon
Arapahoe,Arapahoe County Administration Building,5334 S Prince St Littleton CO 80120,39.61981,-105.01383
Arapahoe,Arapahoe County CentrePoint Plaza,14980 E Alameda Dr Aurora CO 80012,39.70881,-104.81505
Arapahoe,Arapahoe County Lima Plaza,6954 S Lima St Centennial CO 80112,39.59009,-104.85634
Arapahoe,Kelver Library,404 E Front St Byers CO 80103,39.7083,-104.21829
Arapahoe,Martin Luther King  Jr. Library,9898 E Colfax Ave Aurora CO 80010,39.73948,-104.87328
Arapahoe,Smoky Hill Library,5430 S Biscay Cir Centennial CO 80015,39.61809,-104.76753
