county,name,address,lat,lon
Denver,Barnum Recreation Center,360 Hooker St Denver CO 80219,39.72245,-105.02803
Denver,Blair-Caldwell Library,2401 Welton St Denver CO 80205,39.75243,-104.98156
Denver,Christ Community Church,8085 E Hampden Ave Denver CO 80231,39.65371,-104.89498
Denver,Christ United Methodist Church,690 N Colorado Blvd Denver CO 80206,39.72694,-104.94025
Denver,Denver Elections Division,200 W 14th Ave Suite 100 Denver CO 80204,39.73812,-104.99064
Denver,Denver Police Department District 3,1625 S University Blvd Denver CO 80210,39.68684,-104.95997
Denver,Harvey Park Recreation Center,2120 S Tennyson Way Denver CO 80219,39.67818,-105.04175
Denver,Hiawatha Davis Jr Recreation Center,3334 Holly St Denver CO 80207,39.76433,-104.92182
Denver,Highland Recreation Center,2880 Osceola St Denver CO 80212,39.75821,-105.03765
Denver,Montbello Recreation Center,15555 E 53rd Ave Denver CO 80239,39.791,-104.80657
Denver,Tivoli Auraria Campus,900 Auraria Pkwy Denver CO 80204,39.74508,-105.00598
